[{"img":"https://slideplayer.com/10279879/35/images/slide_1.jpg","name":"English Grammar Crash Course","fee":"$450","hours":"24hr"},{"img":"https://cdn.cdnparenting.com/articles/2018/04/589957931-H.jpg","name":"Kids'English","fee":"$450","hours":"20hr"},{"img":"https://assets.website-files.com/5cb90b63adbd7da37ea60e30/5f46bd5424fa71052301839e_how%20to%20give%20a%20presentation%20in%20a%20meeting.jpg","name":"Presentation & Public Speaking","fee":"Free","hours":"2hr"},{"img":"https://www.nextacademy.com/wp-content/uploads/2021/05/Why-Join-A-Coding-Bootcamp.webp","name":"PTE Bootcamp","fee":"$785","duration":"12 Weeks","hours":"32hr"},{"img":"https://proenglishessay.com/wp-content/uploads/2020/01/Essay-on-Self-Confidence.jpg","name":"Self Confidence","fee":"$750","hours":"20hr"},{"img":"https://askanydifference.com/wp-content/uploads/2021/10/Finally-vs-Final.jpg","name":"Formation & Sentences","fee":"$500","hours":"18hr"},{"img":"https://magazine.greatestate.it/wp-content/uploads/2020/03/roleplay-1024x682-1.jpg","name":"Role Plays","fee":"$450","hours":"14hr"},{"img":"https://play-lh.googleusercontent.com/IAyyDh7b-U9GbmVGun3IGES7BCB1U4vCyM4jWEac0sLLc-u_2FO-st-X-msHXl5pMI0","name":"Listening Skills","fee":"$650","hours":"16hr"}]